{"type":"FeatureCollection","features":[{"type":"Feature","properties":{"City":"Santa Monica","Happiness":6},"geometry":{"type":"Point","coordinates":[-118.4937286376953,34.01282694464166]}},{"type":"Feature","properties":{"City":"Los Angeles","Happiness":4},"geometry":{"type":"Point","coordinates":[-118.24310302734374,34.05493499798558]}},{"type":"Feature","properties":{"City":"Pasadena","Happiness":3},"geometry":{"type":"Point","coordinates":[-118.14834594726562,34.14931753487509]}},{"type":"Feature","properties":{"City":"Long Beach","Happiness":7},"geometry":{"type":"Point","coordinates":[-118.19297790527344,33.77229828866843]}},{"type":"Feature","properties":{"City":"Oceanside","Happiness":8},"geometry":{"type":"Point","coordinates":[-117.37243652343749,33.19732768648872]}},{"type":"Feature","properties":{"City":"Escondido","Happiness":1},"geometry":{"type":"Point","coordinates":[-117.10464477539061,33.12145055836598]}},{"type":"Feature","properties":{"City":"San Diego","Happiness":7},"geometry":{"type":"Point","coordinates":[-117.15682983398439,32.712199879463746]}},{"type":"Feature","properties":{"City":"Irvine","Happiness":8},"geometry":{"type":"Point","coordinates":[-117.82150268554686,33.686639073260906]}},{"type":"Feature","properties":{"City":"Santa Clarita","Happiness":7},"geometry":{"type":"Point","coordinates":[-118.564453125,34.38764597384264]}},{"type":"Feature","properties":{"City":"Ventura","Happiness":5},"geometry":{"type":"Point","coordinates":[-119.28955078124999,34.275375297643876]}},{"type":"Feature","properties":{"City":"Santa Barbara","Happiness":9},"geometry":{"type":"Point","coordinates":[-119.68917846679688,34.418239163003484]}},{"type":"Feature","properties":{"City":"Goleta","Happiness":10},"geometry":{"type":"Point","coordinates":[-119.83062744140625,34.43749580157603]}},{"type":"Feature","properties":{"City":"Anaheim","Happiness":8},"geometry":{"type":"Point","coordinates":[-117.91145324707031,33.83506067707558]}}]}